ID;OBJETO_OBRA;CANTIDAD_OBJETOS;MATERIAL;DENOMINACION_SIMBOLIZA;AUTORES;UBICACION;OBSERVACIONES;DIRECCION_NORMALIZADA;CALLE;ALTURA;BARRIO;COMUNA;CODIGA_POSTAL;CODIGO_POSTAL_ARGENTINO;LATITUD;LONGITUD
18;MONUMENTO;1;BRONCE Y MAMPOSTERIA;CEFERINO NAMUNCURA;ARMAS, ARMANDO;PZTA CEFERINO NAMUNCURA;PZTA CEFERINO NAMUNCURA;ARREGUI AV. 6400;ARREGUI AV.;6400;VERSALLES;COMUNA 10;1408;C1408AVV;-34.62847185;-58.5240179
28;MONUMENTO;1;BRONCE Y GRANITO;EN LAS AMERICAS;ATTARDI, UGO;PZTA PROVINCIA DE TUCUMAN;PZTA PROVINCIA DE TUCUMAN;9 DE JULIO AV. Y PELLEGRINI, CARLOS;9 DE JULIO AV.;;RETIRO;COMUNA 1;;;-34.59668496;-58.38142415
33;MONUMENTO;1;BRONCE Y MARMOL;HOMENAJE A LOS CAIDOS EN CASTILLA;BAIARDI, MARIO;;;OBLIGADO RAFAEL, AV.COSTANERA;OBLIGADO RAFAEL, AV.COSTANERA;;;COMUNA 1;;;;
34;MONUMENTO;1;BRONCE Y GRANITO;CAP.GRL.JUSTO JOSE DE URQUIZA;BALDI,RENZO Y ROCHA,HECTOR;;;FIGUEROA ALCORTA, PRES. AV. Y SARMIENTO AV.;FIGUEROA ALCORTA, PRES. AV.;;PALERMO;COMUNA 14;;;-34.5715458;-58.4115809
61;MONUMENTO CON RELIE;1;CEMENTO PATINADO;HOMENAJE A LOS HEROES Y MARTIRES GHETTO;BISCIONE, CARLOS;PARQUE DEL CENTENARIO;PARQUE DEL CENTENARIO;DIAZ VELEZ AV. Y FINOCHIETTO, RICARDO, DR.;DIAZ VELEZ AV.;;CABALLITO;COMUNA 6;;;-34.60862275;-58.43579197
78;MONUMENTO;1;BRONCE Y PIEDRA;GENERAL MARTIN MIGUEL DE GUEMES;BUCCI, ERMANDO;PARQUE SAN BENITO;PARQUE SAN BENITO;FIGUEROA ALCORTA, PRES. AV. 6700;FIGUEROA ALCORTA, PRES. AV.;6700;BELGRANO;COMUNA 13;1428;C1428BCP;-34.55076453;-58.43755598
113;MONUMENTO Y BASE;1;BRONCE Y MAMPOSTERIA;CONDE ANTONIO DEVOTO;ZOCCHI, ARNALDO;PLAZA ARENALES;PLAZA ARENALES;MERCEDES 4058;MERCEDES;4058;VILLA DEVOTO;COMUNA 11;1419;C1419BGJ;-34.60024618;-58.51281285
124;MONUMENTO;1;BRONCE Y PIEDRA;FALUCHO;CORREA MORALES, L.;PZTA FALUCHO;PZTA FALUCHO;SANTA FE AV. Y DRESCO, ARTURO ANTONIO;SANTA FE AV.;;PALERMO;COMUNA 14;;;-34.57726337;-58.42931077
128;MONUMENTO;1;BRONCE Y MARMOL;DR. CARLOS PELLEGRINI;COUTAN, JULIO FELIX;PZTA CARLOS PELLEGRINI;PZTA CARLOS PELLEGRINI;ALVEAR AV. 1350;ALVEAR AV.;1350;RETIRO;COMUNA 1;1014;C1014AAN;-34.59167892;-58.38310936
135;MONUMENTO;1;PIEDRA TOBA;HJE. A ARMENIA;BAGHUMYAN, GRIBOR;PLAZA ARMENIA;PLAZA ARMENIA;MALABIA Y COSTA RICA;MALABIA;;PALERMO;COMUNA 14;;;-34.58946608;-58.4250806
291;MONUMENTO;1;BRONCE Y MARMOL;JUAN BAUTISTA ALBERDI;ARRIGUTTI.M CORVO,C.;PLAZA CONSTITUCION;PLAZA CONSTITUCION;LIMA 1563;LIMA;1563;CONSTITUCION;COMUNA 1;1138;C1138ACG;-34.62656337;-58.38234372
299;MONUMENTO;1;GRANITO Y BRONCE;GRL. JOSE ANTONIO PAEZ;RUS;PLAZA CONSTITUCION;PLAZA CONSTITUCION;LIMA 1563;LIMA;1563;CONSTITUCION;COMUNA 1;1138;C1138ACG;-34.62656337;-58.38234372
495;MONUMENTO;1;MAMPOSTERIA;PIRAMIDE DE MAYO;CA?ETE, PEDRO VICENTE;PLAZA DE MAYO;PLAZA DE MAYO;YRIGOYEN, HIPOLITO AV. 401;YRIGOYEN, HIPOLITO AV.;401;MONSERRAT;COMUNA 1;1086;C1086AAE;-34.60892629;-58.37215533
570;MONUMENTO;1;MARMOL;BEATO LUIS GUANELLA;DAL PORTO, ORIO;PZTA BEATO LUIS GUANELLA;PZTA BEATO LUIS GUANELLA;SCHMIDL, ULRICO 6301;SCHMIDL, ULRICO;6301;MATADEROS;COMUNA 9;1440;C1440CFY;-34.65027316;-58.51121307
577;MONUMENTO;1;BRONCE;DR.LISANDRO DE LA TORRE;DE LA CARCOVA, CARLOS;AV DIAGONAL NORTE Y ESMERALDA;AV DIAGONAL NORTE Y ESMERALDA;SAENZ PEÑA, ROQUE, PRES. DIAGONAL NORTE AV. Y ESMERALDA;SAENZ PEÑA, ROQUE, PRES. DIAGONAL NORTE AV.;;SAN NICOLAS;COMUNA 1;;;-34.60564953;-58.3779643
603;MONUMENTO;1;GRANITO Y BRONCE;DOMINGO MATHEU;ALONSO, MATEO;PLAZA DOMINGO MATHEU;PLAZA DOMINGO MATHEU;ARAOZ DE LAMADRID, GREGORIO, GRAL. Y HERNANDARIAS;ARAOZ DE LAMADRID, GREGORIO, GRAL.;;BOCA;COMUNA 4;;;-34.63988846;-58.36762843
654;MONUMENTO;1;GRANITO Y BRONCE;BERNARDO DE MONTEAGUDO;EBERLEIN, GUSTAVO;PZTA CORONEL PRINGLES;PZTA CORONEL PRINGLES;CASEROS AV. 2999;CASEROS AV.;2999;PARQUE PATRICIOS;COMUNA 4;1264;C1264AAJ;-34.63701593;-58.40551401
687;MONUMENTO (RELIEVE);1;GRANITO;GENERAL JUSTO JOSE DE URQUIZA;TOSTO, PABLO;PLAZA ECHEVERRIA;PLAZA ECHEVERRIA;BAUNESS 1258;BAUNESS;1258;PARQUE CHAS;COMUNA 15;1427;C1427BCR;-34.58645099;-58.47741223
699;MONUMENTO;1;MARMOL Y BRONCE;GRL. SIMON BOLIVAR;FIORAVANTI, JOSE;PARQUE RIVADAVIA;PARQUE RIVADAVIA;RIVADAVIA AV. 4800;RIVADAVIA AV.;4800;CABALLITO;COMUNA 6;1424;C1424CEP;-34.61672966;-58.43271721
700;MONUMENTO;1;PIEDRA PARIS;DR. ROQUE SAENZ PE?A;FIORAVANTI, JOSE;AV ROQUE SAENZ PEÑA Y FLORIDA;AV ROQUE SAENZ PE?A Y FLORIDA;SAENZ PEÑA, ROQUE, PRES. DIAGONAL NORTE AV. Y FLORIDA;SAENZ PEÑA, ROQUE, PRES. DIAGONAL NORTE AV.;;SAN NICOLAS;COMUNA 1;;;-34.6071983;-58.37500895
728;MONUMENTO;1;BRONCE Y HORMIGON;HJE. A HEROES CAIDOS EN MALVINAS;GAIMARI, SANTIAGO;AV PASEO COLON Y ALSINA;AV PASEO COLON Y ALSINA;PASEO COLON AV. Y ALSINA, ADOLFO;PASEO COLON AV.;;MONSERRAT;COMUNA 1;;;-34.60990545;-58.36946776
765;MONUMENTO;1;BRONCE Y GRANITO;EL ABUELO INMORTAL;IBARRA GARCIA, ANGEL;MCAL RAMON CASTILLA Y AGUADO;MCAL RAMON CASTILLA Y AGUADO;CASTILLA, RAMON, MARISCAL Y AGUADO, ALEJANDRO M. DE;CASTILLA, RAMON, MARISCAL;;PALERMO;COMUNA 14;;;-34.58038552;-58.40081871
778;MONUMENTO;1;GRANITO Y BRONCE;CORNELIO SAAVEDRA;LAGAE, JULIO;PZTA REGIMIENTO 1 DE PATRICIOS;PZTA REGIMIENTO 1 DE PATRICIOS;SANTA FE AV. 4815;SANTA FE AV.;4815;PALERMO;COMUNA 14;1425;C1425BHK;-34.57722853;-58.42860424
789;MONUMENTO;1;BRONCE Y MARMOL;JEAN MERMOZ;LAGOS, ALBERTO;AV RAFAEL OBLIGADO (AEROPARQUE);AV RAFAEL OBLIGADO (AEROPARQUE);OBLIGADO RAFAEL, AV.COSTANERA Y SARMIENTO AV.;OBLIGADO RAFAEL, AV.COSTANERA;;;COMUNA 14;;;-34.56791636;-58.40194257
790;MONUMENTO;1;BRONCE Y GRANITO;LUIS MARIA DRAGO;LAGOS, ALBERTO;PZTA GRAL JOSE ANTONIO PAEZ;PZTA GRAL JOSE ANTONIO PAEZ;ISABEL, INFANTA AV. 410;ISABEL, INFANTA AV.;410;;COMUNA 14;1425;C1425CHA;-34.57099207;-58.42138766
792;MONUMENTO;1;BRONCE Y PIEDRA;DR.ANTONIO PI?ERO;LAGOS, ALBERTO;GUIDO Y AGUERO;GUIDO Y AGUERO;GUIDO Y AGUERO;GUIDO;;RECOLETA;COMUNA 2;;;-34.58477159;-58.39777005
794;MONUMENTO;1;BRONCE Y MAMPOSTERIA;TORRE MONUMENTAL;POYNTER, AMBROSIO;PLAZA FUERZA AEREA ARGENTINA;PLAZA FUERZA AEREA ARGENTINA;SAN MARTINN 1212;SAN MARTINN;1212;RETIRO;COMUNA 1;1104;C1104AKD;-34.59296256;-58.37319171
795;MONUMENTO;1;BRONCE;EL INMIGRANTE;LAGOS, ALBERTO;AV ANTARTIDA ARGENTINA Y MAIPU;AV ANTARTIDA ARGENTINA Y MAIPU;ANTARTIDA ARGENTINA AV. Y SAN MARTINN;ANTARTIDA ARGENTINA AV.;;;COMUNA 1;;;-34.59000018;-58.37070838
813;MONUMENTO;1;GRANITO Y BRONCE;HIPOLITO VIEYTES;LLANECES, JOSE;VIEYTES Y OLAVARRIA;VIEYTES Y OLAVARRIA;VIEYTES Y OLAVARRIA;VIEYTES;;BARRACAS;COMUNA 4;;;-34.64294952;-58.37941619
815;MONUMENTO;1;BRONCE Y GRANITO;HOMENAJE A LA HAZA?A DEL PLUS ULTRA;LORDA, JOSE;PARQUE BALNEARIO SUR;PARQUE BALNEARIO SUR;PAZ, GRAL. AV. 16802;PAZ, GRAL. AV.;16802;;COMUNA 8;1439;C1439HNO;-34.69801445;-58.46981073
828;MONUMENTO;1;GRANITO Y BRONCE;GRL. JUAN MARTIN DE PUEYRREDON;HERNANDEZ, RAFAEL;PLAZA GRAL JUAN M DE PUEYRREDON;PLAZA GRAL JUAN M DE PUEYRREDON;YERBAL 2450;YERBAL;2450;;COMUNA 7;1406;C1406GKD;-34.62795955;-58.46419499
990;MONUMENTO;1;PIEDRA PARIS;NICOLAS AVELLANEDA;FIORAVANTI, JOSE;PLAZA HOLANDA;PLAZA HOLANDA;DEL LIBERTADOR AV. 3601;DEL LIBERTADOR AV.;3601;;COMUNA 14;1425;C1425ABJ;-34.57296046;-58.41922807
1019;MONUMENTO;1;PIEDRA Y BRONCE;INDICADOR METEREOLOGICO;MARCOVICH, JOSE;JARDIN BOTANICO;JARDIN BOTANICO;SANTA FE AV. 3951;SANTA FE AV.;3951;PALERMO;COMUNA 14;1425;C1425BHB;-34.58373108;-58.41788399
1032;MONUMENTO;1;BRONCE Y GRANITO;TARAS SHEVCHENKO;MOL, LEO;PZTA GRAL JOSE ANTONIO PAEZ;PZTA GRAL JOSE ANTONIO PAEZ;ISABEL, INFANTA AV. 410;ISABEL, INFANTA AV.;410;;COMUNA 14;1425;C1425CHA;-34.57099207;-58.42138766
1054;MONUMENTO;1;BRONCE Y MARMOL;POLICIA CAIDO EN CUMPLIMIENTO DEL DEBER;NEVOT, ANTONIO;PARQUE PASEO DE LAS AMERICAS;PARQUE PASEO DE LAS AMERICAS;FIGUEROA ALCORTA, PRES. AV. 6700;FIGUEROA ALCORTA, PRES. AV.;6700;;COMUNA 13;1428;C1428BCP;-34.55076453;-58.43755598
1070;MONUMENTO;1;BRONCE Y HORMIGON;HJE. AL BANDONEON;PACENZA, LUCIA;PASEO DEL TANGO;PASEO DEL TANGO;GARDEL, CARLOS Y ANCHORENA, TOMAS MANUEL DE, DR.;GARDEL, CARLOS;;;COMUNA 3;;;-34.60326613;-58.41006398
1071;MONUMENTO Y FUENTE;1;HORMIGON ARMADO;HJE.IV*CENTENARIO FUNDACION BS.AS.;PACENZA, LUCIA;PZTA ADAN QUIROGA;PZTA ADAN QUIROGA;UDAONDO, GUILLERMO AV. 1462;UDAONDO, GUILLERMO AV.;1462;BELGRANO;COMUNA 13;1428;C1428BJS;-34.5489288;-58.45400661
1086;MONUMENTO;1;BRONCE;CARLOS GARDEL;PAGES, MARIANO;PASAJE CARLOS GARDEL Y M DE ANCHORENA;PASAJE CARLOS GARDEL Y M DE ANCHORENA;GARDEL, CARLOS Y ANCHORENA, TOMAS MANUEL DE, DR.;GARDEL, CARLOS;;;COMUNA 3;;;-34.60326613;-58.41006398
1121;MONUMENTO;1;BRONCE Y MAMPOSTERIA;LOS ANDES;PERLOTI, LUIS;PARQUE LOS ANDES;PARQUE LOS ANDES;NEWBERY, JORGE AV. 4100;NEWBERY, JORGE AV.;4100;CHACARITA;COMUNA 15;1427;C1427EGT;-34.58861484;-58.45066409
1132;MONUMENTO;1;BRONCE Y MARMOL;JUAN JOSE PASO;TASSO, TORCUATO;PLAZA JUAN JOSE PASO;PLAZA JUAN JOSE PASO;MOLDES 1302;MOLDES;1302;COLEGIALES;COMUNA 13;1426;C1426ALP;-34.56973961;-58.45286065
1144;MONUMENTO Y FUENTE;1;BRONCE Y MAMPOSTERIA;BALLET NACIONAL;LA CARCOVA Y C.CERRATO;PLAZA LAVALLE;PLAZA LAVALLE;CORRIENTES AV. 1145;CORRIENTES AV.;1145;SAN NICOLAS;COMUNA 1;1043;C1043AAL;-34.60369423;-58.38292045
1185;MONUMENTO;1;BRONCE;FLORENCIO PARRAVICINI;FIORAVANTI, JOSE;PLAZA LAVALLE;PLAZA LAVALLE;CORRIENTES AV. 1145;CORRIENTES AV.;1145;SAN NICOLAS;COMUNA 1;1043;C1043AAL;-34.60369423;-58.38292045
1189;MONUMENTO;1;CEMENTO BLANCO;SOLDADO PATRICIO;ROBERTI, JUAN;PARQUE DE LOS PATRICIOS;PARQUE DE LOS PATRICIOS;CASEROS AV. Y MONTEAGUDO;CASEROS AV.;;PARQUE PATRICIOS;COMUNA 4;;;-34.63711738;-58.40561079
1214;MONUMENTO;1;GRANITO Y BRONCE;HJE. A JUAN B. JUSTO;SARACENO M.-SOTO AVENDA?;CERVIÑO Y BULLRICH;CERVIÑO Y BULLRICH;CERVIÑO AV. Y BULLRICH, INT. AV.;CERVIÑO AV.;;PALERMO;COMUNA 14;;;-34.57455373;-58.42499142
1245;MONUMENTO;1;BRONCE Y GRANITO;LUIS VIALE;TABACHI, EDUARDO;PARQUE BALNEARIO SUR;PARQUE BALNEARIO SUR;PAZ, GRAL. AV. 16802;PAZ, GRAL. AV.;16802;;COMUNA 8;1439;C1439HNO;-34.69801445;-58.46981073
1246;MONUMENTO;1;PIEDRA E HIERRO;CRUCEIRO;TALLERES DE LA CORU?A;PARQUE LEZAMA;PARQUE LEZAMA;PASEO COLON AV. 1503;PASEO COLON AV.;1503;BOCA;COMUNA 4;1063;C1063ADC;-34.62520922;-58.36797836
1266;MONUMENTO;1;CEMENTO PATINADO;MADRE TERESA DE CALCUTA;TOTO, CARLOS MARIA;HOSPITAL MUNICIPAL MUÑIZ;HOSPITAL MUNICIPAL MUÑIZ;USPALLATA 2272;USPALLATA;2272;PARQUE PATRICIOS;COMUNA 4;1282;C1282AEN;-34.63721751;-58.39299957
1267;MONUMENTO;1;CEMENTO PATINADO;MADRE TERESA DE CALCUTA;TOTO, CARLOS MARIA;PARQUE LEZAMA;PARQUE LEZAMA;PASEO COLON AV. 1503;PASEO COLON AV.;1503;BOCA;COMUNA 4;1063;C1063ADC;-34.62520922;-58.36797836
1270;MONUMENTO;1;BRONCE Y GRANITO;JOSE MANUEL ESTRADA;ROCHA, HECTOR;PLAZA LOREA;PLAZA LOREA;DE MAYO AV. Y SAENZ PEÑA, LUIS, PRES.;DE MAYO AV.;;MONSERRAT;COMUNA 1;;;-34.60945102;-58.38729382
1274;MONUMENTO;1;CEMENTO PATINADO;DN. SANTIAGO DE LINIERS Y BREMOND;TOTO, CARLOS MARIA;PZTA SAN NICOLAS;PZTA SAN NICOLAS;CORRIENTES AV. Y RECONQUISTA;CORRIENTES AV.;;SAN NICOLAS;COMUNA 1;;;-34.60314262;-58.37246811
1279;MONUMENTO;1;MARMOL;PAUL GROUSSAC;TROIANI, TROIANO;JARDIN DE LOS POETAS;JARDIN DE LOS POETAS;ISABEL, INFANTA AV. 900;ISABEL, INFANTA AV.;900;;COMUNA 14;1425;C1425CHA;-34.5700668;-58.42048287
1311;MONUMENTO;1;MARMOL;CRISTOBAL COLON;ZOCCHI, ARNALDO;PARQUE COLON SUR;PARQUE COLON SUR;PASEO COLON AV. Y YRIGOYEN, HIPOLITO AV.;PASEO COLON AV.;;;COMUNA 1;;;-34.6088315;-58.3696578
1315;MONUMENTO;1;BRONCE Y PIEDRA;LEANDRO N. ALEM;ZONZA BRIANO, PEDRO;PZTA AZUCENA MAIZANI;PZTA AZUCENA MAIZANI;DEL LIBERTADOR AV. Y RAMOS MEJIA, JOSE MARIA, DR. AV.;DEL LIBERTADOR AV.;;;COMUNA 1;;;-34.59265225;-58.37544732
1318;MONUMENTO;1;BRONCE Y MARMOL;FRANKLIN DELANO ROOSEVELT;FIORAVANTI, JOSE;PLAZA MARTIN DE ALZAGA;PLAZA MARTIN DE ALZAGA;DORREGO AV. 80;DORREGO AV.;80;CHACARITA;COMUNA 15;1414;C1414CJN;-34.59740703;-58.4550354
1373;MONUMENTO;1;HIERRO Y HORMIGON;HJE. VICTIMAS TRAGEDIA DE ONCE;G.C.B.A.;PLAZA MISERERE;PLAZA MISERERE;MITRE, BARTOLOME 2819;MITRE, BARTOLOME;2819;BALVANERA;COMUNA 3;1201;C1201AAA;-34.60889247;-58.40622385
1375;MONUMENTO MAUSOLEO;1;BRONCE Y PIEDRA;BERNARDINO RIVADAVIA;YRURTIA, ROGELIO;PLAZA MISERERE;PLAZA MISERERE;MITRE, BARTOLOME 2819;MITRE, BARTOLOME;2819;BALVANERA;COMUNA 3;1201;C1201AAA;-34.60889247;-58.40622385
1453;MONUMENTO;1;GRANITO Y BRONCE;DR. MIGUEL DE AZCUENAGA;CORDIER, LUIS ERNESTO;PLAZA PRIMERA JUNTA;PLAZA PRIMERA JUNTA;RIVADAVIA AV. Y BARCO CENTENERA DEL;RIVADAVIA AV.;;;COMUNA 6;;;-34.62082004;-58.4411025
1482;MONUMENTO;1;BRONCE Y PIEDRA;EDUARDO COSTA;;PLAZA R GONZALEZ FERNANDEZ;PLAZA R GONZALEZ FERNANDEZ;SARMIENTO AV. E IRAOLA AV.;SARMIENTO AV.;;;COMUNA 14;;;-34.57214617;-58.41246804
1538;MONUMENTO;1;BRONCE Y GRANITO;GRL.BERNARDO DE O'HIGGINS;MAZZA CORDOBA, G.;PLAZA REPUBLICA DE CHILE;PLAZA REPUBLICA DE CHILE;DEL LIBERTADOR AV. 2100;DEL LIBERTADOR AV.;2100;PALERMO;COMUNA 14;1425;C1425AAT;-34.5818478;-58.40236341
1601;MONUMENTO;1;MARMOL;DR.ARISTOBULO DEL VALLE;PEYNOT, EMILIO EDMUNDO;PLAZA REPUBLICA DEL URUGUAY;PLAZA REPUBLICA DEL URUGUAY;DEL LIBERTADOR AV. 1702;DEL LIBERTADOR AV.;1702;RECOLETA;COMUNA 2;1425;C1425AAQ;-34.58319728;-58.39752727
1602;MONUMENTO;1;BRONCE Y GRANITO;GRL.JOSE GERVASIO DE ARTIGAS;ZORRILLA DE SAN MARTINN;PLAZA REPUBLICA DEL URUGUAY;PLAZA REPUBLICA DEL URUGUAY;DEL LIBERTADOR AV. 1702;DEL LIBERTADOR AV.;1702;RECOLETA;COMUNA 2;1425;C1425AAQ;-34.58319728;-58.39752727
1661;MONUMENTO;1;BRONCE Y GRANITO;DR. RODRIGUEZ PE?A;EBERLEIN, GUSTAVO;PLAZA RODRIGUEZ PEÑA;PLAZA RODRIGUEZ PE?A;CALLAO AV. 965;CALLAO AV.;965;RECOLETA;COMUNA 2;1023;C1023AAC;-34.59755468;-58.39305326
1674;MONUMENTO;1;MARMOL;JOSE MAZZINI;MONTEVERDE, JULIO;PLAZA ROMA;PLAZA ROMA;LAVALLE Y ALEM, LEANDRO N. AV.;LAVALLE;;SAN NICOLAS;COMUNA 1;;;-34.60187574;-58.37019846
1741;MONUMENTO;1;BRONCE Y GRANITO;GRL.SAN MARTINN Y EJERCITO LIBERTADOR;DAUMAS,J.-EBERLEIN,G;PLAZA SAN MARTINN;PLAZA SAN MARTINN;DEL LIBERTADOR AV. 2;DEL LIBERTADOR AV.;2;RETIRO;COMUNA 1;1001;C1001ABN;-34.59368281;-58.37410054
1783;MONUMENTO;1;BRONCE;SAN MARTINN DE TOURS;BUCCI, ERMANDO;AV ALVEAR 2136;AV ALVEAR 2136;ALVEAR AV. 2136;ALVEAR AV.;2136;RECOLETA;COMUNA 2;1129;C1129AAQ;-34.58565624;-58.39026165
3;MONUMENTO;1;GRANITO Y BRONCE;SIRIOS A LA ARGENTINA;AFFANI, GARIBALDI;PZTA DR CARLOS ALBERTO ERRO;PZTA DR CARLOS ALBERTO ERRO;MADERO, EDUARDO AV. Y SARMIENTO;MADERO, EDUARDO AV.;;SAN NICOLAS;COMUNA 1;;;-34.60405133;-58.36805535
4;MONUMENTO;1;BRONCE Y GRANITO;PRO CULTURA NACIONAL;AFFANI, GARIBALDI;;;DEL LIBERTADOR AV. Y CALLAO AV.;DEL LIBERTADOR AV.;;RECOLETA;COMUNA 2;;;-34.58658516;-58.3858523
5;MONUMENTO;1;MARMOL Y PIEDRA;GERMAN BURMEISTER;AIGNER, RICARDO;PARQUE DEL CENTENARIO;PARQUE DEL CENTENARIO;DIAZ VELEZ AV. 4800;DIAZ VELEZ AV.;4800;CABALLITO;COMUNA 6;1405;C1405DCP;-34.60866562;-58.43480424
10;MONUMENTO;1;BRONCE;CRISTOBAL COLON;VASSILICOS, JOSEFA A. DE;PLAZA MARTIN DE IRIGOYEN;PLAZA MARTIN DE IRIGOYEN;FONROUGE 301;FONROUGE;301;LINIERS;COMUNA 9;1408;C1408HFG;-34.64236693;-58.51236717
12;MONUMENTO;1;BRONCE Y PIEDRA;ARGENTINA Y SUIZA UNIDAS SOBRE EL MUNDO;AMLEHN, FRANZ SALES;;;DORREGO AV. 4045;DORREGO AV.;4045;PALERMO;COMUNA 14;1425;C1425GBE;-34.56290084;-58.41704703
20;MONUMENTO;1;GRANITO Y BRONCE;DON JUAN DE GARAY;EBERLEIN, GUSTAVO;PLAZA 11 DE JUNIO DE 1580;PLAZA 11 DE JUNIO DE 1580;ALEM, LEANDRO N. AV. 90;ALEM, LEANDRO N. AV.;90;SAN NICOLAS;COMUNA 1;1003;C1003AAN;-34.60669936;-58.37036874
62;MONUMENTO ALEGORICO;1;HORMIGON ARMADO;CONVIVENCIA Y PAZ;BITTON, FRANCOISE;PARQUE DE LOS NI??OS;PARQUE DE LOS NIÑOS;;;;;;;;;
106;MONUMENTO;1;BRONCE Y PIEDRA;WILLIAM C. MORRIS;CERANTONIO, HUMBERTO;AV FIGUEROA ALCORTA-MENDEZ AGUSTIN;AV FIGUEROA ALCORTA-MENDEZ AGUSTIN;FIGUEROA ALCORTA, PRES. AV. Y MENDEZ, AGUSTIN;FIGUEROA ALCORTA, PRES. AV.;;PALERMO;COMUNA 14;;;-34.56267673;-58.42337262
109;MONUMENTO;1;GRANITO Y BRONCE;ALMIRANTE GUILLERMO BROWN;CHIAPASCO, ALEJANDRO;PZTA JOSE RAZZANO;PZTA JOSE RAZZANO;ROSALES AV. Y PERON, JUAN DOMINGO, TTE. GENERAL;ROSALES AV.;;SAN NICOLAS;COMUNA 1;;;-34.60524792;-58.36885736
185;MONUMENTO;1;BRONCE Y MARMOL;JORGE CANNING;LAGOS, ALBERTO;PLAZA BARTOLOME MITRE;PLAZA BARTOLOME MITRE;;;;;;;;;
188;MONUMENTO;1;BRONCE Y GRANITO;GIBRAN KHALIL GIBRAN;;PLAZA BARTOLOME MITRE;PLAZA BARTOLOME MITRE;;;;;;;;;
306;MONUMENTO;1;BRONCE Y MARMOL;DR.JOSE FIGUEROA ALCORTA;FERRARO, JUAN CARLOS;PLAZA DANTE;PLAZA DANTE;DEL LIBERTADOR AV. Y PUEYRREDON AV.;DEL LIBERTADOR AV.;;RECOLETA;COMUNA 2;;;-34.58475338;-58.39172485
374;MONUMENTO OBELISCO;1;MAMPOSTERIA;HJE. AL IV° CENT. FUNDACION DE BS. A;E.A.I.M.;PLAZA DE LA REPUBLICA;PLAZA DE LA REPUBLICA;CORRIENTES AV. 1066;CORRIENTES AV.;1066;SAN NICOLAS;COMUNA 1;1043;C1043AAX;-34.60360686;-58.38180146
500;MONUMENTO;1;BRONCE Y GRANITO;GRL. MANUEL BELGRANO;CARRIERE B. Y S. COLOMA;PLAZA DE MAYO;PLAZA DE MAYO;YRIGOYEN, HIPOLITO AV. 401;YRIGOYEN, HIPOLITO AV.;401;MONSERRAT;COMUNA 1;1086;C1086AAE;-34.60892629;-58.37215533
576;MONUMENTO;1;MARMOL Y GRANITO;TEODOLINA ALVEAR DE LEZICA;DE LA CARCOVA, CARLOS;PEPIRI-CHUTRO PEDRO-LOS PATOS-AV;PEPIRI-CHUTRO PEDRO-LOS PATOS-AV;PEPIRI Y CHUTRO, PEDRO, PROF., DR.;PEPIRI;;PARQUE PATRICIOS;COMUNA 4;;;-34.6427229;-58.40931033
617;MONUMENTO;1;BRONCE Y GRANITO;HOMENAJE A ESPA?A;DRESCO, ARTURO;PZTA CIUDAD DE SALAMANCA;PZTA CIUDAD DE SALAMANCA;ESPAÑA AV. Y LAFONE, QUEVEDO SAMUEL;ESPAÑA AV.;;BOCA;COMUNA 4;;;-34.62233467;-58.35461059
672;MONUMENTO;1;MARMOL;HOMENAJE A LAS VICTIMAS DE LA FIEBRE AM;FERRARI, JUAN;PARQUE AMEGHINO;PARQUE AMEGHINO;CASEROS AV. Y SANTA CRUZ;CASEROS AV.;;PARQUE PATRICIOS;COMUNA 4;;;-34.63490646;-58.39385875
730;MONUMENTO;1;BRONCE Y MARMOL;JOSE EVARISTO URIBURU;LAGOS, ALBERTO;PLAZA EMILIO MITRE;PLAZA EMILIO MITRE;LAS HERAS GENERAL AV. 2300;LAS HERAS GENERAL AV.;2300;RECOLETA;COMUNA 2;1127;C1127AAR;-34.58747065;-58.39720581
756;MONUMENTO;1;BRONCE Y GRANITO;FRANCIA A LA ARGENTINA;PEYNOT, EMILIO EDMUNDO;PLAZA FRANCIA;PLAZA FRANCIA;DEL LIBERTADOR AV. 1400;DEL LIBERTADOR AV.;1400;RECOLETA;COMUNA 2;1112;C1112ABQ;-34.58475991;-58.39170453
762;MONUMENTO;1;MARMOL Y BRONCE;EL CID CAMPEADOR;HUNTINGTON, ANN DE;PZTA CID CAMPEADOR;PZTA CID CAMPEADOR;PUEYRREDON, HONORIO, DR. AV. Y GAONA AV.;PUEYRREDON, HONORIO, DR. AV.;;CABALLITO;COMUNA 6;;;-34.60780568;-58.44530262
774;MONUMENTO;1;BRONCE Y GRANITO;JORGE WASHINGTON;KEK, CHARLES;PZTA GRAL JOSE ANTONIO PAEZ;PZTA GRAL JOSE ANTONIO PAEZ;ISABEL, INFANTA AV. 410;ISABEL, INFANTA AV.;410;PALERMO;COMUNA 14;1425;C1425CHA;-34.57099207;-58.42138766
775;MONUMENTO;1;HORMIGON Y ACERO;HOMENAJE A LA DEMOCRACIA;KOSICE, GYULA;PZTA PROVINCIA DE TUCUMAN;PZTA PROVINCIA DE TUCUMAN;CERRITO Y SANTA FE AV.;CERRITO;;RETIRO;COMUNA 1;;;-34.59546241;-58.38272426
779;MONUMENTO;1;PIEDRA Y BRONCE;HOMENAJE A LOS DOS CONGRESOS;LAGAE, JULIO Y . ARQ . D HU;SOLIS 59;SOLIS 59;SOLIS Y YRIGOYEN, HIPOLITO AV.;SOLIS;;MONSERRAT;COMUNA 1;;;-34.61017307;-58.39042332
797;MONUMENTO;1;BRONCE,GRANITO Y MARMOL;GENERAL BARTOLOME MITRE;CALANDRA,D-RUBINO,E;PLAZA GENERAL BARTOLOME MITRE;PLAZA GENERAL BARTOLOME MITRE;;;;;;;;;
805;MONUMENTO;1;BRONCE Y GRANITO;GENERAL MANUEL BELGRANO;ROCHA, HECTOR;PLAZA GENERAL BELGRANO;PLAZA GENERAL BELGRANO;VUELTA DE OBLIGADO 2000;VUELTA DE OBLIGADO;2000;BELGRANO;COMUNA 13;1428;C1428ADD;-34.56248844;-58.45483961
984;MONUMENTO;1;GRANITO Y BRONCE;JUAN LARREA;DRESCO, ARTURO;PLAZA HERRERA;PLAZA HERRERA;HERRERA Y QUINQUELA MARTIN, BENITO;HERRERA;;BARRACAS;COMUNA 4;;;-34.64369063;-58.37623364
985;MONUMENTO;1;BRONCE Y MAMPOSTERIA;PAUL PIERCE HARRYS;ARGENTO, JORGE;PLAZA HOLANDA;PLAZA HOLANDA;DEL LIBERTADOR AV. 3601;DEL LIBERTADOR AV.;3601;PALERMO;COMUNA 14;1425;C1425ABJ;-34.57296046;-58.41922807
999;MONUMENTO;1;BRONCE Y GRANITO;GENERAL CARLOS MARIA DE ALVEAR;BOURDELLE, ANTONIO;PLAZA INTENDENTE ALVEAR;PLAZA INTENDENTE ALVEAR;DEL LIBERTADOR AV. 1400;DEL LIBERTADOR AV.;1400;RECOLETA;COMUNA 2;1112;C1112ABQ;-34.58475991;-58.39170453
1011;MONUMENTO;1;CEMENTO PATINADO Y GRANITO;HJE. A MARCELO T. DE ALVEAR;IRALA, GERSON ERIC;PLAZA INTENDENTE ALVEAR;PLAZA INTENDENTE ALVEAR;DEL LIBERTADOR AV. 1400;DEL LIBERTADOR AV.;1400;RECOLETA;COMUNA 2;1112;C1112ABQ;-34.58475991;-58.39170453
1013;MONUMENTO;1;BRONCE Y MARMOL;TORCUATO DE ALVEAR;LAUER;PLAZA INTENDENTE ALVEAR;PLAZA INTENDENTE ALVEAR;DEL LIBERTADOR AV. 1400;DEL LIBERTADOR AV.;1400;RECOLETA;COMUNA 2;1112;C1112ABQ;-34.58475991;-58.39170453
1031;MONUMENTO;1;HORMIGON ARMADO;GUARDACOSTAS;MIRWALD, ANDRES;AV DE LOS ITALIANOS Y A VILLAFL;AV DE LOS ITALIANOS Y A VILLAFLOR;DE LOS ITALIANOS AV. Y VILLAFLOR, AZUCENA;DE LOS ITALIANOS AV.;;PUERTO MADERO;COMUNA 1;;;-34.61147935;-58.35913945
1064;MONUMENTO;1;BRONCE Y MARMOL;DN. PEDRO DE MENDOZA;OLIVA NAVARRO, JUAN;PARQUE LEZAMA;PARQUE LEZAMA;PASEO COLON AV. 1503;PASEO COLON AV.;1503;BOCA;COMUNA 4;1063;C1063ADC;-34.62520922;-58.36797836
1095;MONUMENTO;1;MAMPOSTERIA Y BRONCE;HOMENAJE A LA CORDIALIDAD ARGENTINO - U;PENA, ARQ. ANTONIO;PARQUE LEZAMA;PARQUE LEZAMA;PASEO COLON AV. 1503;PASEO COLON AV.;1503;BOCA;COMUNA 4;1063;C1063ADC;-34.62520922;-58.36797836
1114;MONUMENTO;1;BRONCE Y GRANITO;JOSE GARIBALDI;MACAGNINI, EUGENIO;PLAZA ITALIA;PLAZA ITALIA;SARMIENTO AV. 4000;SARMIENTO AV.;4000;PALERMO;COMUNA 14;1425;C1425FHN;-34.56954355;-58.41126449
1128;MONUMENTO;1;MARMOL;OFRENDA FLORAL A SARMIENTO;PEYNOT, EMILIO EDMUNDO;ROSEDAL;ROSEDAL;ISABEL, INFANTA AV. 900;ISABEL, INFANTA AV.;900;PALERMO;COMUNA 14;1425;C1425CHA;-34.5700668;-58.42048287
1138;MONUMENTO;1;BRONCE Y MARMOL;LA CARTA MAGNA Y 4 REGIONES ARGENTINAS;QUEROL, AGUSTIN;AVDAS DEL LIBERTADOR Y SARMIENTO;AVDAS DEL LIBERTADOR Y SARMIENTO;DEL LIBERTADOR AV. Y SARMIENTO AV.;DEL LIBERTADOR AV.;;PALERMO;COMUNA 14;;;-34.57497741;-58.41540606
1140;MONUMENTO;1;MARMOL Y PIEDRA;HOMENAJE A LOS CAIDOS EL 6 DE SETIEMBRE;RIGANELLI, AGUSTIN;PLAZA JUAN XXIII;PLAZA JUAN XXIII;JUNIN 1849;JUNIN;1849;RECOLETA;COMUNA 2;1113;C1113AAU;-34.58787559;-58.39213027
1143;MONUMENTO;1;PIEDRA PARIS;JUANA DE ARCO EN LA HOGUERA;REAL DEL SARTE, M.;AVDAS SARMIENTO Y R OBLIGADO;AVDAS SARMIENTO Y R OBLIGADO;OBLIGADO RAFAEL, AV.COSTANERA Y SARMIENTO AV.;OBLIGADO RAFAEL, AV.COSTANERA;;PALERMO;COMUNA 14;;;-34.56791636;-58.40194257
1155;MONUMENTO;1;PIEDRA Y MARMOL;GRL. JUAN LAVALLE;COSTA, PEDRO;PLAZA LAVALLE;PLAZA LAVALLE;CORRIENTES AV. 1145;CORRIENTES AV.;1145;SAN NICOLAS;COMUNA 1;1043;C1043AAL;-34.60369423;-58.38292045
1177;MONUMENTO;1;BRONCE Y MARMOL;DN. HIPOLITO YRIGOYEN;FERRARI, PEDRO;PLAZA LAVALLE;PLAZA LAVALLE;CORRIENTES AV. 1145;CORRIENTES AV.;1145;SAN NICOLAS;COMUNA 1;1043;C1043AAL;-34.60369423;-58.38292045
1184;MONUMENTO;1;BRONCE;FLORENCIO SANCHEZ;RIGANELLI, AGUSTIN;PZTA ALFREDO RIVAS;PZTA ALFREDO RIVAS;CHICLANA AV. 2802;CHICLANA AV.;2802;SAN CRISTOBAL;COMUNA 3;1259;C1259AAN;-34.62762017;-58.403994
1194;MONUMENTO;1;BRONCE Y PIEDRA;DR.GUILLERMO RAWSON;ROCHA, HECTOR;PZTA REINO DE TAILANDIA;PZTA REINO DE TAILANDIA;AGOTE, LUIS DR. 2201;AGOTE, LUIS DR.;2201;RECOLETA;COMUNA 2;1425;C1425EOA;-34.58715651;-58.3974469
1216;MONUMENTO;1;BRONCE Y GRANITO;EL RESERO;SARNIGUET, EMILIO J. A.;PZTA EL RESERO;PZTA EL RESERO;DE LOS CORRALES AV. 6536;DE LOS CORRALES AV.;6536;MATADEROS;COMUNA 9;1440;C1440BBO;-34.66293657;-58.50040368
1221;MONUMENTO;1;RESINA SINTETICA;HJE. A JOSE HERNANDEZ;SAVIO, ENRIQUE LUIS;PZTA NUESTRA SE??ORA DE LOS BU;PZTA NUESTRA SEÑORA DE LOS BU;;;;;;;;;
1231;MONUMENTO;1;GRANITO Y BRONCE;ING. LUIS A. HUERGO;SFORZA, CESAR;PEDRO DE MENDOZA Y GABOTO;PEDRO DE MENDOZA Y GABOTO;;;;;;;;;
1244;MONUMENTO;1;BRONCE Y MARMOL;EMPERADOR ULPIO TRAJANO;;PLAZA LAVALLE;PLAZA LAVALLE;CORRIENTES AV. 1145;CORRIENTES AV.;1145;SAN NICOLAS;COMUNA 1;1043;C1043AAL;-34.60369423;-58.38292045
1248;MONUMENTO;1;BRONCE Y MAMPOSTERIA;ESTEBAN ECHEVERRIA;TASSO, TORCUATO;PZTA JUVENILIA;PZTA JUVENILIA;ALVEAR, MARCELO T. DE 600;ALVEAR, MARCELO T. DE;600;RETIRO;COMUNA 1;1058;C1058AAF;-34.59627232;-58.37530884
1257;MONUMENTO;1;BRONCE Y GRANITO;DR. ADOLFO ALSINA;MILLET, AIME;PLAZA LIBERTAD;PLAZA LIBERTAD;LIBERTAD 909;LIBERTAD;909;RETIRO;COMUNA 1;1012;C1012AAS;-34.59798117;-58.38410711
1283;MONUMENTO;1;HORMIGON ARMADO;VICTORIA;TUCKER, WILLIAM;PARQUE DE LA MEMORIA;PARQUE DE LA MEMORIA;OBLIGADO RAFAEL, AV.COSTANERA Y SARMIENTO AV.;OBLIGADO RAFAEL, AV.COSTANERA;;PALERMO;COMUNA 14;;;-34.56791636;-58.40194257
1288;MONUMENTO;1;PIEDRA Y BRONCE;MARIANO MORENO;BLAY Y FABREGAS, M.;PLAZA MARIANO MORENO;PLAZA MARIANO MORENO;DE MAYO AV. 1500;DE MAYO AV.;1500;MONSERRAT;COMUNA 1;1085;C1085ABR;-34.60949143;-58.38673113
1306;MONUMENTO MAUSOLEO;1;BRONCE Y GRANITO;GRL. MANUEL BELGRANO;XIMENEZ, ETTORE;ATRIO IGLESIA SANTO DOMINGO;ATRIO IGLESIA SANTO DOMINGO;BELGRANO AV. 422;BELGRANO AV.;422;MONSERRAT;COMUNA 1;1092;C1092AAR;-34.61257297;-58.37236647
1310;MONUMENTO Y MONOLIT;1;BRONCE Y MAMPOSTERIA;CORONEL MANUEL DORREGO;YRURTIA, ROGELIO;PZTA SUIPACHA;PZTA SUIPACHA;VIAMONTE Y SUIPACHA;VIAMONTE;;SAN NICOLAS;COMUNA 1;;;-34.60012814;-58.37967425
1317;MONUMENTO;1;BRONCE Y GRANITO;GRL. JULIO ARGENTINO ROCA;ZORRILLA DE SAN MARTINN;PZTA TANTURI;PZTA TANTURI;ROCA, JULIO A., PRESIDENTE DIAGONAL SUR AV. Y PERU;ROCA, JULIO A., PRESIDENTE DIAGONAL SUR AV.;;MONSERRAT;COMUNA 1;;;-34.61042896;-58.3748516
1432;MONUMENTO ALEGORICO;1;BRONCE Y MADERA;CAMPANA DE LA PAZ;;JARDIN JAPONES;JARDIN JAPONES;CASARES AV. 3401;CASARES AV.;3401;PALERMO;COMUNA 14;1425;C1425EWA;-34.57726013;-58.40986535
1450;MONUMENTO;1;MARMOL;PRESBITERO MANUEL ALBERTI;CORREA MORALES, L.;PLAZA PRESBITERO MANUEL ALBERTI;PLAZA PRESBITERO MANUEL ALBERTI;ARCOS Y UGARTE, MANUEL;ARCOS;;BELGRANO;COMUNA 13;;;-34.55480625;-58.45867268
1474;MONUMENTO;1;BRONCE Y MARMOL;FRANCISCO DE PAULA SANTANDER;BORNER, CARL;PLAZA R GONZALEZ FERNANDEZ;PLAZA R GONZALEZ FERNANDEZ;SARMIENTO AV. E IRAOLA AV.;SARMIENTO AV.;;PALERMO;COMUNA 14;;;-34.57214617;-58.41246804
1483;MONUMENTO;1;BRONCE Y MARMOL;RAMON L.FALCON Y LARTIGAU;LAGOS, ALBERTO;PLAZA RAMON CARCANO;PLAZA RAMON CARCANO;HAEDO, EDUARDO V., PRES. Y ALVEAR AV.;HAEDO, EDUARDO V., PRES.;;RECOLETA;COMUNA 2;;;-34.58675316;-58.39057034
1484;MONUMENTO;1;BRONCE Y MARMOL;RIQUEZA AGROPEÑARIA ARGENTINA;BREDOW, GUSTAVO A.;PLAZA REPUBLICA DE ALEMANIA;PLAZA REPUBLICA DE ALEMANIA;SCALABRINI ORTIZ, RAUL 2602;SCALABRINI ORTIZ, RAUL;2602;PALERMO;COMUNA 14;1425;C1425DBU;-34.5844382;-58.41494718
1531;MONUMENTO;1;BRONCE;MARTIN MIGUEL DE GUEMES;ARRIGUTTI, MARIO;PLAZA REPUBLICA DE CHILE;PLAZA REPUBLICA DE CHILE;DEL LIBERTADOR AV. 2100;DEL LIBERTADOR AV.;2100;PALERMO;COMUNA 14;1425;C1425AAT;-34.5818478;-58.40236341
1534;MONUMENTO;1;BRONCE;GREGORIO DE LAS HERAS;DAL PORTO, ORIO;PLAZA REPUBLICA DE CHILE;PLAZA REPUBLICA DE CHILE;DEL LIBERTADOR AV. 2100;DEL LIBERTADOR AV.;2100;PALERMO;COMUNA 14;1425;C1425AAT;-34.5818478;-58.40236341
1539;MONUMENTO;1;PIEDRA;VIRGEN DEL CARMEN DE CUYO;PIANNA, QUINTINO;PLAZA REPUBLICA DE CHILE;PLAZA REPUBLICA DE CHILE;DEL LIBERTADOR AV. 2100;DEL LIBERTADOR AV.;2100;PALERMO;COMUNA 14;1425;C1425AAT;-34.5818478;-58.40236341
1540;MONUMENTO;1;BRONCE Y GRANITO;A.M.DE AGUADO-EL BIENHECHOR;ROSSELLI, VICENTE;PLAZA REPUBLICA DE CHILE;PLAZA REPUBLICA DE CHILE;DEL LIBERTADOR AV. 2100;DEL LIBERTADOR AV.;2100;PALERMO;COMUNA 14;1425;C1425AAT;-34.5818478;-58.40236341
1541;MONUMENTO;1;BRONCE;MANUEL DE ARENALES;RUIZ, H.A.;PLAZA REPUBLICA DE CHILE;PLAZA REPUBLICA DE CHILE;DEL LIBERTADOR AV. 2100;DEL LIBERTADOR AV.;2100;PALERMO;COMUNA 14;1425;C1425AAT;-34.5818478;-58.40236341
1542;MONUMENTO;1;BRONCE Y GRANITO;MARISCAL RAMON CASTILLA;TORROSIMO, VICENTE;PLAZA REPUBLICA DE CHILE;PLAZA REPUBLICA DE CHILE;DEL LIBERTADOR AV. 2100;DEL LIBERTADOR AV.;2100;PALERMO;COMUNA 14;1425;C1425AAT;-34.5818478;-58.40236341
1543;MONUMENTO;1;BRONCE;GRL. JUAN MARTIN DE PUEYRREDON;VILADRICH, WILFREDO;PLAZA REPUBLICA DE CHILE;PLAZA REPUBLICA DE CHILE;DEL LIBERTADOR AV. 2100;DEL LIBERTADOR AV.;2100;PALERMO;COMUNA 14;1425;C1425AAT;-34.5818478;-58.40236341
1582;MONUMENTO;1;MARMOL;GARCILASO DE LA VEGA-EL INCA;ROCA REY, JOAQUIN;PLAZA REPUBLICA DEL PERU;PLAZA REPUBLICA DEL PERU;FIGUEROA ALCORTA, PRES. AV. 3437;FIGUEROA ALCORTA, PRES. AV.;3437;PALERMO;COMUNA 14;1425;C1425CLA;-34.5768258;-58.40433093
1649;MONUMENTO;1;PIEDRA;COLUMNA DE PERSEPOLIS;REPRODUCCION;PLAZA REPUBLICA ISLAMICA DE IRAN;PLAZA REPUBLICA ISLAMICA DE IRAN;BERRO, ADOLFO AV. Y SARMIENTO AV.;BERRO, ADOLFO AV.;;PALERMO;COMUNA 14;;;-34.57214617;-58.41246804
1658;MONUMENTO;1;BRONCE Y GRANITO;DR. BERNARDO DE IRIGOYEN;BENLLIEURE GIL, M.;PLAZA RODRIGUEZ PEÑA;PLAZA RODRIGUEZ PE?A;CALLAO AV. 965;CALLAO AV.;965;RECOLETA;COMUNA 2;1023;C1023AAC;-34.59755468;-58.39305326
1718;MONUMENTO;1;BRONCE Y MARMOL;RUBEN DARIO;FIORAVANTI, JOSE;AV PRES FIGUEROA ALCORTA 2302;AV PRES FIGUEROA ALCORTA 2302;FIGUEROA ALCORTA, PRES. AV. 2302;FIGUEROA ALCORTA, PRES. AV.;2302;RECOLETA;COMUNA 2;1425;C1425CKP;-34.58311464;-58.39305904
1719;MONUMENTO;1;BRONCE;RAOUL WALLENBERG;JACKSON, PHILIP;AV PRES FIGUEROA ALCORTA 2302;AV PRES FIGUEROA ALCORTA 2302;FIGUEROA ALCORTA, PRES. AV. 2302;FIGUEROA ALCORTA, PRES. AV.;2302;RECOLETA;COMUNA 2;1425;C1425CKP;-34.58311464;-58.39305904
1747;MONUMENTO;1;BRONCE Y HORMIGON;GRANADEROS A CABALLO;SAVIO, ENRIQUE LUIS;PLAZA SAN MARTINN;PLAZA SAN MARTINN;DEL LIBERTADOR AV. 2;DEL LIBERTADOR AV.;2;RETIRO;COMUNA 1;1001;C1001ABN;-34.59368281;-58.37410054
1795;MONUMENTO;1;MARMOL Y GRANITO;DR.EMILIO MITRE;CULLEN AYERZA, H.;AV ALVEAR 2136;AV ALVEAR 2136;ALVEAR AV. 2136;ALVEAR AV.;2136;RECOLETA;COMUNA 2;1129;C1129AAQ;-34.58565624;-58.39026165
1845;MONUMENTO;1;BRONCE Y GRANITO;CARLOS TEJEDOR Y LA HISTORIA;CORREA MORALES, L.;DEL LIBARTADOR AV 3101;DEL LIBARTADOR AV 3101;DEL LIBERTADOR AV. 3101;DEL LIBERTADOR AV.;3101;PALERMO;COMUNA 14;1425;C1425ABE;-34.57642343;-58.41177108
1940;MONUMENTO;1;GRANITO Y BRONCE;JUAN JOSE CASTELLI;EBERLEIN, GUSTAVO;DEL LIBARTADOR AV 3101;DEL LIBARTADOR AV 3101;DEL LIBERTADOR AV. 3101;DEL LIBERTADOR AV.;3101;PALERMO;COMUNA 14;1425;C1425ABE;-34.57642343;-58.41177108
2025;MONUMENTO;1;BRONCE Y MARMOL;DOMINGO FAUSTINO SARMIENTO;RODIN, AUGUSTO;DEL LIBARTADOR AV 3101;DEL LIBARTADOR AV 3101;DEL LIBERTADOR AV. 3101;DEL LIBERTADOR AV.;3101;PALERMO;COMUNA 14;1425;C1425ABE;-34.57642343;-58.41177108
2130;MONUMENTO;1;CEDRO;TOTEM CANADIENSE;;DEL LIBARTADOR AV 3101;DEL LIBARTADOR AV 3101;DEL LIBERTADOR AV. 3101;DEL LIBERTADOR AV.;3101;PALERMO;COMUNA 14;1425;C1425ABE;-34.57642343;-58.41177108
2164;MONUMENTO;1;CEMENTO PATINADO;HUGO DEL CARRIL;TOTO, CARLOS MARIA;DELFIN GALLO 5746;DELFIN GALLO 5746;GALLO, DELFIN 5746;GALLO, DELFIN;5746;VILLA LUGANO;COMUNA 8;1439;C1439IBB;-34.67722311;-58.47607551
2177;MONUMENTO;1;BRONCE;VICENTE LOPEZ Y PLANES;ALONSO, MATEO;PLAZA VICENTE LOPEZ;PLAZA VICENTE LOPEZ;;;;;;;;;
2218;MONUMENTO;1;HORMIGON Y ACERO;AVION MIRAGE III;;PZTA AERONAUTICA ARGENTINA;PZTA AERONAUTICA ARGENTINA;LARRAZABAL AV. Y FERNANDEZ DE LA CRUZ, F., GRAL. AV.;LARRAZABAL AV.;;VILLA LUGANO;COMUNA 8;;;-34.68013913;-58.46647128
2233;MONUMENTO;1;BRONCE Y GRANITO;CARLOS III*;VARGAS, ALFONSO;PZTA VIRREINATO DEL RIO DE LA PLATA;PZTA VIRREINATO DEL RIO DE LA PLATA;DEL LIBERTADOR AV. 3400;DEL LIBERTADOR AV.;3400;PALERMO;COMUNA 14;1425;C1425ABT;-34.57527713;-58.4149428
